[
  {
    "team": "ARI",
    "venue": "State Farm Stadium",
    "city": "Glendale, AZ",
    "lat": 33.5276,
    "lon": -112.2626,
    "roof": "retractable"
  },
  {
    "team": "ATL",
    "venue": "Mercedes-Benz Stadium",
    "city": "Atlanta, GA",
    "lat": 33.7554,
    "lon": -84.4007,
    "roof": "retractable"
  },
  {
    "team": "BAL",
    "venue": "M&T Bank Stadium",
    "city": "Baltimore, MD",
    "lat": 39.2779,
    "lon": -76.6227,
    "roof": "outdoor"
  },
  {
    "team": "BUF",
    "venue": "Highmark Stadium",
    "city": "Orchard Park, NY",
    "lat": 42.7738,
    "lon": -78.7868,
    "roof": "outdoor"
  },
  {
    "team": "CAR",
    "venue": "Bank of America Stadium",
    "city": "Charlotte, NC",
    "lat": 35.2258,
    "lon": -80.8528,
    "roof": "outdoor"
  },
  {
    "team": "CHI",
    "venue": "Soldier Field",
    "city": "Chicago, IL",
    "lat": 41.8625,
    "lon": -87.6166,
    "roof": "outdoor"
  },
  {
    "team": "CIN",
    "venue": "Paycor Stadium",
    "city": "Cincinnati, OH",
    "lat": 39.0955,
    "lon": -84.5161,
    "roof": "outdoor"
  },
  {
    "team": "CLE",
    "venue": "Cleveland Browns Stadium",
    "city": "Cleveland, OH",
    "lat": 41.5061,
    "lon": -81.6995,
    "roof": "outdoor"
  },
  {
    "team": "DAL",
    "venue": "AT&T Stadium",
    "city": "Arlington, TX",
    "lat": 32.7473,
    "lon": -97.0945,
    "roof": "retractable"
  },
  {
    "team": "DEN",
    "venue": "Empower Field at Mile High",
    "city": "Denver, CO",
    "lat": 39.7439,
    "lon": -105.0201,
    "roof": "outdoor"
  },
  {
    "team": "DET",
    "venue": "Ford Field",
    "city": "Detroit, MI",
    "lat": 42.34,
    "lon": -83.0456,
    "roof": "dome"
  },
  {
    "team": "GB",
    "venue": "Lambeau Field",
    "city": "Green Bay, WI",
    "lat": 44.5013,
    "lon": -88.0622,
    "roof": "outdoor"
  },
  {
    "team": "HOU",
    "venue": "NRG Stadium",
    "city": "Houston, TX",
    "lat": 29.6847,
    "lon": -95.4107,
    "roof": "retractable"
  },
  {
    "team": "IND",
    "venue": "Lucas Oil Stadium",
    "city": "Indianapolis, IN",
    "lat": 39.7601,
    "lon": -86.1639,
    "roof": "retractable"
  },
  {
    "team": "JAX",
    "venue": "EverBank Stadium",
    "city": "Jacksonville, FL",
    "lat": 30.3239,
    "lon": -81.6373,
    "roof": "outdoor"
  },
  {
    "team": "KC",
    "venue": "GEHA Field at Arrowhead Stadium",
    "city": "Kansas City, MO",
    "lat": 39.049,
    "lon": -94.484,
    "roof": "outdoor"
  },
  {
    "team": "LAC",
    "venue": "SoFi Stadium",
    "city": "Inglewood, CA",
    "lat": 33.9535,
    "lon": -118.3392,
    "roof": "fixed"
  },
  {
    "team": "LAR",
    "venue": "SoFi Stadium",
    "city": "Inglewood, CA",
    "lat": 33.9535,
    "lon": -118.3392,
    "roof": "fixed"
  },
  {
    "team": "LV",
    "venue": "Allegiant Stadium",
    "city": "Las Vegas, NV",
    "lat": 36.0909,
    "lon": -115.183,
    "roof": "fixed"
  },
  {
    "team": "MIA",
    "venue": "Hard Rock Stadium",
    "city": "Miami Gardens, FL",
    "lat": 25.958,
    "lon": -80.2389,
    "roof": "outdoor"
  },
  {
    "team": "MIN",
    "venue": "U.S. Bank Stadium",
    "city": "Minneapolis, MN",
    "lat": 44.9737,
    "lon": -93.2579,
    "roof": "fixed"
  },
  {
    "team": "NE",
    "venue": "Gillette Stadium",
    "city": "Foxborough, MA",
    "lat": 42.0909,
    "lon": -71.2643,
    "roof": "outdoor"
  },
  {
    "team": "NO",
    "venue": "Caesars Superdome",
    "city": "New Orleans, LA",
    "lat": 29.9509,
    "lon": -90.0815,
    "roof": "dome"
  },
  {
    "team": "NYG",
    "venue": "MetLife Stadium",
    "city": "East Rutherford, NJ",
    "lat": 40.8128,
    "lon": -74.0742,
    "roof": "outdoor"
  },
  {
    "team": "NYJ",
    "venue": "MetLife Stadium",
    "city": "East Rutherford, NJ",
    "lat": 40.8128,
    "lon": -74.0742,
    "roof": "outdoor"
  },
  {
    "team": "PHI",
    "venue": "Lincoln Financial Field",
    "city": "Philadelphia, PA",
    "lat": 39.9008,
    "lon": -75.1675,
    "roof": "outdoor"
  },
  {
    "team": "PIT",
    "venue": "Acrisure Stadium",
    "city": "Pittsburgh, PA",
    "lat": 40.4467,
    "lon": -80.0158,
    "roof": "outdoor"
  },
  {
    "team": "SEA",
    "venue": "Lumen Field",
    "city": "Seattle, WA",
    "lat": 47.5952,
    "lon": -122.3316,
    "roof": "outdoor"
  },
  {
    "team": "SF",
    "venue": "Levi's Stadium",
    "city": "Santa Clara, CA",
    "lat": 37.403,
    "lon": -121.97,
    "roof": "outdoor"
  },
  {
    "team": "TB",
    "venue": "Raymond James Stadium",
    "city": "Tampa, FL",
    "lat": 27.9759,
    "lon": -82.5033,
    "roof": "outdoor"
  },
  {
    "team": "TEN",
    "venue": "Nissan Stadium",
    "city": "Nashville, TN",
    "lat": 36.1665,
    "lon": -86.7713,
    "roof": "outdoor"
  },
  {
    "team": "WAS",
    "venue": "Commanders Field",
    "city": "Landover, MD",
    "lat": 38.9076,
    "lon": -76.8645,
    "roof": "outdoor"
  }
]